{
"type": "FeatureCollection",
"name": "Manufactured_Gas_Plant_Sites",
"crs": { "type": "name", "properties": { "name": "urn:ogc:def:crs:OGC:1.3:CRS84" } },
"features": [
{ "type": "Feature", "properties": { "OBJECTID": 1, "EPAID": "NONCD0000032", "SITENAME": "Asheville MGP 2", "CERCLIS_N": "Asheville Coal Gas Plant No 2", "SITEADDR": "173 S Charotte Street", "SITECITY": "Asheville", "SITECOUNTY": "Buncombe", "YRS_OP": "1893-1907", "LEAD_RP": "Progress Energy", "STATUS": "A" }, "geometry": { "type": "Point", "coordinates": [ -82.550134768370626, 35.590410894962105 ] } },
{ "type": "Feature", "properties": { "OBJECTID": 2, "EPAID": "NCD986188787", "SITENAME": "Asheville MGP 1", "CERCLIS_N": "Asheville Coal Gas Plant No 1", "SITEADDR": "31 Riverside Drive", "SITECITY": "Asheville", "SITECOUNTY": "Buncombe", "YRS_OP": "1902-1953", "LEAD_RP": "Progress Energy", "STATUS": "A" }, "geometry": { "type": "Point", "coordinates": [ -82.567345773176598, 35.58531189344211 ] } },
{ "type": "Feature", "properties": { "OBJECTID": 3, "EPAID": "NONCD0000002", "SITENAME": "Burlington MGP", "CERCLIS_N": "Burlington Coal Gas Plant", "SITEADDR": "1205 North Church Street", "SITECITY": "Burlington", "SITECOUNTY": "Alamance", "YRS_OP": "1925-1953", "LEAD_RP": "Duke Power", "STATUS": "A" }, "geometry": { "type": "Point", "coordinates": [ -79.418429861929852, 36.096935118874661 ] } },
{ "type": "Feature", "properties": { "OBJECTID": 4, "EPAID": " ", "SITENAME": "Charlotte MGP No 1", "CERCLIS_N": "Charlotte Coal Gas Plant No 1", "SITEADDR": "200 South College Street", "SITECITY": "Charlotte", "SITECOUNTY": "Mecklenburg", "YRS_OP": "1857-1900", "LEAD_RP": "unkown", "STATUS": "I" }, "geometry": { "type": "Point", "coordinates": [ -80.843953242471827, 35.225400881841523 ] } },
{ "type": "Feature", "properties": { "OBJECTID": 5, "EPAID": "NCD986188803", "SITENAME": "Charlotte MGP No 2", "CERCLIS_N": "Charlotte Coal Gas Plant No 2", "SITEADDR": "1400 South Boulevard", "SITECITY": "Charlotte", "SITECOUNTY": "Mecklenburg", "YRS_OP": "1899-1955", "LEAD_RP": "Duke Power", "STATUS": "A" }, "geometry": { "type": "Point", "coordinates": [ -80.854004244726127, 35.215738878972829 ] } },
{ "type": "Feature", "properties": { "OBJECTID": 6, "EPAID": "NCD986197333", "SITENAME": "Concord MGP", "CERCLIS_N": "Concord Coal Gas Plant", "SITEADDR": "183 Academy Avenue", "SITECITY": "Concord", "SITECOUNTY": "Cabarrus", "YRS_OP": "1911-1950", "LEAD_RP": "SCANA/PSNC", "STATUS": "A" }, "geometry": { "type": "Point", "coordinates": [ -80.592068176817591, 35.411665930355099 ] } },
{ "type": "Feature", "properties": { "OBJECTID": 7, "EPAID": "NCD986173938", "SITENAME": "Durham MGP", "CERCLIS_N": "Durham Gas Plant", "SITEADDR": "708 Gilbert Street", "SITECITY": "Durham", "SITECOUNTY": "Durham", "YRS_OP": "1910-1955", "LEAD_RP": "SCANA/PSNC", "STATUS": "A" }, "geometry": { "type": "Point", "coordinates": [ -78.888434695553102, 35.996424116668948 ] } },
{ "type": "Feature", "properties": { "OBJECTID": 8, "EPAID": "NCD986197267", "SITENAME": "Elizabeth City MGP", "CERCLIS_N": "Elizabeth City Coal Gas", "SITEADDR": "Ward Street", "SITECITY": "Elizabeth City", "SITECOUNTY": "Pasquotank", "YRS_OP": "1898-1958", "LEAD_RP": "AGL Resources", "STATUS": "A" }, "geometry": { "type": "Point", "coordinates": [ -76.217390896289615, 36.309264276487951 ] } },
{ "type": "Feature", "properties": { "OBJECTID": 9, "EPAID": "NCD986197341", "SITENAME": "Fayetteville MGP", "CERCLIS_N": "Fayetteville Coal Gas/Ray Ave", "SITEADDR": "Ray Avenue", "SITECITY": "Fayetteville", "SITECOUNTY": "Cumberland", "YRS_OP": "1859-1948", "LEAD_RP": "City of Fayetteville", "STATUS": "A" }, "geometry": { "type": "Point", "coordinates": [ -78.8821286443372, 35.056959915329095 ] } },
{ "type": "Feature", "properties": { "OBJECTID": 10, "EPAID": "NCD986188829", "SITENAME": "Gastonia MGP", "CERCLIS_N": "Gastonia Coal Gas Plant", "SITEADDR": "Caldwell Street", "SITECITY": "Gastonia", "SITECOUNTY": "Gaston", "YRS_OP": "1920-1950", "LEAD_RP": "SCANA/PSNC", "STATUS": "I" }, "geometry": { "type": "Point", "coordinates": [ -81.184029345889073, 35.276274879984186 ] } },
{ "type": "Feature", "properties": { "OBJECTID": 11, "EPAID": "NCD986197309", "SITENAME": "Goldsboro MGP No 1", "CERCLIS_N": "Goldsboro Coal Gas Plant No 1", "SITEADDR": "Virginia and Vine Streets", "SITECITY": "Goldsboro", "SITECOUNTY": "Wayne", "YRS_OP": "1900-1940", "LEAD_RP": "unknown", "STATUS": "I" }, "geometry": { "type": "Point", "coordinates": [ -77.999576394403363, 35.391415018045969 ] } },
{ "type": "Feature", "properties": { "OBJECTID": 12, "EPAID": "NCD981861743", "SITENAME": "Greensboro MGP No 2", "CERCLIS_N": "Duke Power/Greensboro Gas Plant", "SITEADDR": "Friendly Ave and Church Street", "SITECITY": "Greensboro", "SITECOUNTY": "Guilford", "YRS_OP": "1910-1955", "LEAD_RP": "Duke Power", "STATUS": "A" }, "geometry": { "type": "Point", "coordinates": [ -79.785639971506342, 36.074050100966204 ] } },
{ "type": "Feature", "properties": { "OBJECTID": 13, "EPAID": "NONCD0001089", "SITENAME": "Greensboro MGP No 1", "CERCLIS_N": "Greensboro Coal Gas Plant No 1", "SITEADDR": "Church Street", "SITECITY": "Greensboro", "SITECOUNTY": "Guilford", "YRS_OP": "NA", "LEAD_RP": "Duke Power", "STATUS": "A" }, "geometry": { "type": "Point", "coordinates": [ -79.78642497179672, 36.072896100646716 ] } },
{ "type": "Feature", "properties": { "OBJECTID": 14, "EPAID": "NCD986188886", "SITENAME": "Greenville MGP", "CERCLIS_N": "Greenville Coal Gas Plant", "SITEADDR": "Plant Street", "SITECITY": "Greenville", "SITECOUNTY": "Pitt", "YRS_OP": "1926-1951", "LEAD_RP": "Greenville Utilities Commission", "STATUS": "A" }, "geometry": { "type": "Point", "coordinates": [ -77.377033216181687, 35.616100088012587 ] } },
{ "type": "Feature", "properties": { "OBJECTID": 15, "EPAID": "NONCD0001084", "SITENAME": "Henderson MGP", "CERCLIS_N": "Henderson Coal Gas Plant", "SITEADDR": "Yadkin Street", "SITECITY": "Henderson", "SITECOUNTY": "Vance", "YRS_OP": "1912-1942", "LEAD_RP": "unknown", "STATUS": "I" }, "geometry": { "type": "Point", "coordinates": [ -78.423855573081596, 36.329660204587036 ] } },
{ "type": "Feature", "properties": { "OBJECTID": 16, "EPAID": "NONCD0001085", "SITENAME": "Hickory MGP", "CERCLIS_N": "Hickory Coal Gas Plant", "SITEADDR": "625 12th Street Drive NW", "SITECITY": "Hickory", "SITECOUNTY": "Catawba", "YRS_OP": "1933-1948", "LEAD_RP": "PNG", "STATUS": "I" }, "geometry": { "type": "Point", "coordinates": [ -81.365321426652883, 35.742297971787352 ] } },
{ "type": "Feature", "properties": { "OBJECTID": 17, "EPAID": "NCD986188837", "SITENAME": "High Point MGP", "CERCLIS_N": "High Point Coal Gas Plant", "SITEADDR": "Centennial St and Kivett Drive", "SITECITY": "High Point", "SITECOUNTY": "Guilford", "YRS_OP": "1912-1948", "LEAD_RP": "Duke Power", "STATUS": "I" }, "geometry": { "type": "Point", "coordinates": [ -80.000765029712198, 35.960060068941154 ] } },
{ "type": "Feature", "properties": { "OBJECTID": 18, "EPAID": "NCD986197366", "SITENAME": "Kinston MGP", "CERCLIS_N": "Kinston Coal Gas Plant", "SITEADDR": "South St and Herritage Street", "SITECITY": "Kinston", "SITECOUNTY": "Lenoir", "YRS_OP": "1925-1952", "LEAD_RP": "Progress Energy", "STATUS": "A" }, "geometry": { "type": "Point", "coordinates": [ -77.585029262001939, 35.255698003015468 ] } },
{ "type": "Feature", "properties": { "OBJECTID": 19, "EPAID": "NCD986197358", "SITENAME": "Lexington MGP", "CERCLIS_N": "Lexington Coal Gas Plant", "SITEADDR": "Gas Plant Road or SR 2001", "SITECITY": "Lexington", "SITECOUNTY": "Davidson", "YRS_OP": "1920-1950", "LEAD_RP": "unknown", "STATUS": "I" }, "geometry": { "type": "Point", "coordinates": [ -80.223865090253511, 35.83092303377191 ] } },
{ "type": "Feature", "properties": { "OBJECTID": 20, "EPAID": "NCD986197259", "SITENAME": "New Bern MGP", "CERCLIS_N": "New Bern Coal Gas Plant", "SITEADDR": "506 Tryon Palace Drive", "SITECITY": "New Bern", "SITECOUNTY": "Craven", "YRS_OP": "1859-1947", "LEAD_RP": "Progress Energy", "STATUS": "A" }, "geometry": { "type": "Point", "coordinates": [ -77.042617089477247, 35.105453988063559 ] } },
{ "type": "Feature", "properties": { "OBJECTID": 21, "EPAID": "NCD986188894", "SITENAME": "Raleigh MGP No 1", "CERCLIS_N": "Raleigh Coal Gas Plant No 1", "SITEADDR": "McDowell St and Cararrus Street", "SITECITY": "Raleigh", "SITECOUNTY": "Wake", "YRS_OP": "1872-1914", "LEAD_RP": "Progress Energy", "STATUS": "A" }, "geometry": { "type": "Point", "coordinates": [ -78.642926610158099, 35.77392307833334 ] } },
{ "type": "Feature", "properties": { "OBJECTID": 22, "EPAID": "NCD986188902", "SITENAME": "Raleigh MGP No 2", "CERCLIS_N": "Raleigh Coal Gas Plant No 2", "SITEADDR": "600 West Cabarrus Street", "SITECITY": "Raleigh", "SITECOUNTY": "Wake", "YRS_OP": "1916-1953", "LEAD_RP": "SCANA/PSNC", "STATUS": "A" }, "geometry": { "type": "Point", "coordinates": [ -78.6476246107392, 35.775334078228056 ] } },
{ "type": "Feature", "properties": { "OBJECTID": 23, "EPAID": "NONCD0001087", "SITENAME": "Reidsville MGP", "CERCLIS_N": "Reidsville Coal Gas Plant", "SITEADDR": "825 Way Street", "SITECITY": "Reidsville", "SITECOUNTY": "Rockingham", "YRS_OP": "1929-1946", "LEAD_RP": "PNG", "STATUS": "I" }, "geometry": { "type": "Point", "coordinates": [ -79.660219949305556, 36.348873163393023 ] } },
{ "type": "Feature", "properties": { "OBJECTID": 24, "EPAID": "NCD986197325", "SITENAME": "Rocky Mount MGP No 1", "CERCLIS_N": "Rocky Mount Coal Gas Plant No 1", "SITEADDR": "Wye Street", "SITECITY": "Rocky Mount", "SITECOUNTY": "Edgecomb", "YRS_OP": "1905-1936", "LEAD_RP": "unknown", "STATUS": "I" }, "geometry": { "type": "Point", "coordinates": [ -77.799427361860026, 35.931246141125335 ] } },
{ "type": "Feature", "properties": { "OBJECTID": 25, "EPAID": "NCD986197317", "SITENAME": "Rocky Mount MGP No 2", "CERCLIS_N": "Rocky Mount Coal Gas Plant No 2", "SITEADDR": "100 East Virginia Street", "SITECITY": "Rocky Mount", "SITECOUNTY": "Edgecomb", "YRS_OP": "1920-1950", "LEAD_RP": "City of Rocky Mount", "STATUS": "I" }, "geometry": { "type": "Point", "coordinates": [ -77.790913360693708, 35.951059146039974 ] } },
{ "type": "Feature", "properties": { "OBJECTID": 26, "EPAID": "NCD986197283", "SITENAME": "Salisbury MGP No 1", "CERCLIS_N": "Salisbury Coal Gas Plant No 1", "SITEADDR": "324 East Liberty Street", "SITECITY": "Salisbury", "SITECOUNTY": "Rowan", "YRS_OP": "1910-1948", "LEAD_RP": "Duke Power", "STATUS": "A" }, "geometry": { "type": "Point", "coordinates": [ -80.464744153074918, 35.667214989698671 ] } },
{ "type": "Feature", "properties": { "OBJECTID": 27, "EPAID": "NCD986197291", "SITENAME": "Statesville MGP", "CERCLIS_N": "Statesville Coal Gas Plant", "SITEADDR": "615 South Center Street", "SITECITY": "Statesville", "SITECOUNTY": "Iredell", "YRS_OP": "1918-1945", "LEAD_RP": "SCANA/PSNC", "STATUS": "I" }, "geometry": { "type": "Point", "coordinates": [ -80.884286284500675, 35.778160997793584 ] } },
{ "type": "Feature", "properties": { "OBJECTID": 28, "EPAID": "NCD986197275", "SITENAME": "Washington MGP", "CERCLIS_N": "Washington Coal Gas Plant", "SITEADDR": "West 3rd Street", "SITECITY": "Washington", "SITECOUNTY": "Beaufort", "YRS_OP": "1857-1947", "LEAD_RP": "Progress Energy", "STATUS": "A" }, "geometry": { "type": "Point", "coordinates": [ -77.062961117425161, 35.54785708317582 ] } },
{ "type": "Feature", "properties": { "OBJECTID": 29, "EPAID": "NCD986188910", "SITENAME": "Wilmington MGP", "CERCLIS_N": "Wilminton Coal Gas Plant", "SITEADDR": "Castle St and Surry Street", "SITECITY": "Wilmington", "SITECOUNTY": "New Hanover", "YRS_OP": "1883-1952", "LEAD_RP": "Progress Energy", "STATUS": "A" }, "geometry": { "type": "Point", "coordinates": [ -77.949669322263361, 34.22719176423459 ] } },
{ "type": "Feature", "properties": { "OBJECTID": 30, "EPAID": "NCD986166700", "SITENAME": "Wilson MGP", "CERCLIS_N": "Toisnot Swamp", "SITEADDR": "Pine Street", "SITECITY": "Wilson", "SITECOUNTY": "Wilson", "YRS_OP": "1916-1946", "LEAD_RP": "City of Wilson", "STATUS": "A" }, "geometry": { "type": "Point", "coordinates": [ -77.90218038304927, 35.734654095531489 ] } },
{ "type": "Feature", "properties": { "OBJECTID": 31, "EPAID": "NCD986188845", "SITENAME": "Winston-Salem MGP No 1", "CERCLIS_N": "Winston-Salem Coal Gas Plant No 1", "SITEADDR": "501 East Third Street", "SITECITY": "Winston-Salem", "SITECOUNTY": "Forsyth", "YRS_OP": "1900-1958", "LEAD_RP": "Duke Power", "STATUS": "A" }, "geometry": { "type": "Point", "coordinates": [ -80.239143109830493, 36.098741089245543 ] } },
{ "type": "Feature", "properties": { "OBJECTID": 32, "EPAID": "NCD986188852", "SITENAME": "Winston-Salem MGP No 2", "CERCLIS_N": "Winston-Salem Coal Gas Plant No 2", "SITEADDR": "Brookstown Avenue", "SITECITY": "Winston-Salem", "SITECOUNTY": "Forsyth", "YRS_OP": "1858-1900", "LEAD_RP": "unknown", "STATUS": "I" }, "geometry": { "type": "Point", "coordinates": [ -80.244652110827928, 36.091231087958086 ] } }
]
}
